Hospital Name,latitude,longitude
Royal United Hospitals Bath NHS Foundation Trust,51.3919925,-2.3939779
Brighton and Sussex University Hospitals NHS Trust,50.8197141,-0.1198673
London North West University Healthcare NHS Trust,51.5312272,-0.2713872
George Eliot Hospital NHS Trust,52.5123961,-1.4800467
Cwm Taf Morgannwg University Health Board,51.7641625,-3.3884819
Hampshire Hospitals NHS Foundation Trust,51.0615067,-1.3313365
Betsi Cadwaladr University Health Board,53.2084982,-4.1618127